"STA","Station Name","Elevation","Latitude","Longitude","Nearby City","Hydro #","Basin #","Owner","Maintenance","Operator","Map #","Collect #","County Name","Basin Name","Agency Name","Hydro Area","Sensors"
"5SI","SAN JOAQUIN 5-STATION PRECIP INDEX","0","37.74","-119.583",,"6","9001","999","722","722","24","0","none specified","SAN JOAQUIN R","CA Dept of Water Resources/DFM-Hydro-Water Supply Fcasting","SAN JOAQUIN RIVER","2,45"
"6SI","TULARE PRECIPITATION INDEX","0","36.288","-118.702","PORTERVILLE","7","9801","999","722","722","31","6","TULARE","TULARE LAKE","CA Dept of Water Resources/DFM-Hydro-Water Supply Fcasting","TULARE LAKE","2,45"
"8SI","NORTHERN SIERRA 8-STATION PRECIP INDEX","0","39.9","-120.9",,"5","6501","999","722","722","14","0","PLUMAS","SACRAMENTO R","CA Dept of Water Resources/DFM-Hydro-Water Supply Fcasting","SACRAMENTO RIVER","2,45"
"ADM","ADIN MOUNTAIN","6200","41.237","-120.792","ADIN","5","6701","999","999","54","5","0","MODOC","PIT R","Natural Resources Conservation Service","SACRAMENTO RIVER","2,3,4,18,30,31,32,82"
"ADR","AUBURN DAM RIDGE","1200","38.882","-121.045","AUBURN","5","7701","50","702","50","17","0","PLACER","AMERICAN R","US Bureau of Reclamation","SACRAMENTO RIVER","2,4,14,16,30,31,32,45"
"ADS","ALDER SPRINGS NEAR ELK CREEK","4500","39.65","-122.725","ORLAND","5","7251","999","999","44","12","0","GLENN","STONY CR","US Forest Service","SACRAMENTO RIVER","2,4,9,10,11,12,13,14,26,30,31,32,45,77,78"
"AGW","A.G. WISHON (PG&E)","1000","37.151","-119.505","NORTH FORK","6","9001","999","999","60","25","0","MERCED","SAN JOAQUIN R","Pacific Gas & Electric","SAN JOAQUIN RIVER","2,12,14,16,30,45"
"ALY","ALLEGHANY","4957","39.47021484375","-120.87427520752","ALLEGHANY","5","7401","701","702","702","999","0","SIERRA","YUBA R","CA Dept of Water Resources/DFM-Hydro-SMN","SACRAMENTO RIVER","2,14,45"
"ANG","ANGWIN","1815","38.5712","-122.4332","ST HELENA","2","1901","702","702","702","16","2","NAPA","NAPA R","CA Dept of Water Resources/DFM-Hydro-SMN","SAN FRANCISCO BAY","2,4,14,16,45"
"ANT","ANTELOPE LAKE","4960","40.18","-120.607","SUSANVILLE","5","7301","709","709","709","10","0","PLUMAS","FEATHER R","CA Dept of Water Resources/O&M Oroville Field Division","SACRAMENTO RIVER","2,4,6,14,15,22,30,31,32,45,65"
"API","ALPINE","2041","32.834","-116.739","EL CAJON","4","6101","999","999","44","60","0","SAN DIEGO","SAN DIEGO R","US Forest Service","SOUTH COAST","2,4,9,10,11,12,13,14,26,30,31,32,45,77,78"
"ARS","ARROWHEAD SPRINGS HOTEL","2000","34.184","-117.264","SAN BERNARDINO","4","5201","999","136","136","47","0","SAN BERNARDINO","LYTLE CR","San Bernardino County","SOUTH COAST","2,16,45"
"ARW","ARDEN WAY","35","38.596","-121.413","SACRAMENTO","5","7701","999","999","134","17","13","SACRAMENTO","AMERICAN R","Sacramento County","SACRAMENTO RIVER","1,2,16,45"
"ARY","ARROYO SECO","980","36.23","-121.488","GREENFIELD","3","3301","999","999","44","29","0","MONTEREY","SALINAS R","US Forest Service","CENTRAL COAST","2,4,9,10,11,12,13,14,26,30,31,32,45,77,78"
"ATL","ATLAS PEAK","1660","38.42833333","-122.24833333","NAPA","2","1901","702","702","702","15","2","NAPA","NAPA R","CA Dept of Water Resources/DFM-Hydro-SMN","SAN FRANCISCO BAY","2,4,9,10,12,14,16,45"
"ATW","ATWELL CAMP","6400","36.464","-118.631","SILVER CITY","7","9501","999","999","56","32","0","TULARE","KAWEAH R","US Army Corps of Engineers","TULARE LAKE","2,45"
"BAL","BALCH PH (PG&E)","1720","36.909","-119.089","PIEDRA","7","9401","999","999","60","31","0","FRESNO","KINGS R","Pacific Gas & Electric","TULARE LAKE","2,12,14,16,30,31,32,36,45,203"
"BAP","BYRON AIRPORT","43","37.8306","-121.6225","BYRON","2","8101","999","999","107","23","0","CONTRA COSTA","DELTA","Contra Costa County","SAN FRANCISCO BAY","2,45"
"BCH","BEACH MEADOWS","7650","36.1260948181152","-118.29345703125","FAIRVIEW","7","9701","702","702","702","999","0","TULARE","KERN R","CA Dept of Water Resources/DFM-Hydro-SMN","TULARE LAKE","2,3,4,9,10,12,14,18,30,31,32,45,82,103,104,105"
"BDC","BOULDER CREEK","800","37.142","-122.163","BOULDER CREEK","3","2901","999","999","144","22","0","SANTA CRUZ","SAN LORENZO R","Santa Cruz County","CENTRAL COAST","2,16,45"
"BDD","BIG DALTON DAM","1587","34.17","-117.808","GLENDORA","4","4901","170","170","170","47","0","LOS ANGELES","SAN GABRIEL R","Los Angeles County","SOUTH COAST","2,16,45"
"BDM","BALD MOUNTAIN (USBR)","4720","37.0631484985352","-119.408576965332","AUBERRY","6","9001","50","702","50","999","0","FRESNO","SAN JOAQUIN R","US Bureau of Reclamation","SAN JOAQUIN RIVER","2,4,14,16,30,31,32,45"
"BDY","BRANDY CREEK","1300","40.617","-122.567","WHISKEYTOWN","5","7001","999","999","50","8","0","SHASTA","SACTO VLY NE","US Bureau of Reclamation","SACRAMENTO RIVER","2,4,14,16,30,31,32,45"
"BFK","BAKERSFIELD AIRPORT","494","35.434","-119.054","BAKERSFIELD","7","9801","999","999","40","38","0","KERN","TULARE LAKE","National Weather Service","TULARE LAKE","2,45"
"BFL","BIG FLAT","5100","41.0775985717773","-122.942230224609","COFFEE CREEK","1","901","50","702","50","999","0","TRINITY","TRINITY R","US Bureau of Reclamation","NORTH COAST","2,3,4,14,18,45,82"
"BGB","BIG BAR","1270","40.733","-123.2","WEAVERVILLE","1","901","999","999","44","7","0","TRINITY","TRINITY R","US Forest Service","NORTH COAST","2,4,9,10,11,12,13,14,26,30,31,32,45,77,78"
"BGR","BANGOR","800","39.380729675293","-121.386245727539","BANGOR","5","7401","999","999","3","999","0","BUTTE","YUBA R","CA Dept of Forestry and Fire Protection","SACRAMENTO RIVER","2,4,9,10,11,12,13,14,26,30,31,32,45,77,78"
"BGV","BRIDGEVILLE","646","40.4738807678223","-123.792808532715","SCOTIA","1","1301","409","702","409","999","0","HUMBOLDT","VAN DUZEN R","USGS/DWR-DFM-Hydro-SMN","NORTH COAST","2,4,14,16,45"
"BHL","BEVERLY HILLS","1260","34.125","-118.42","BEVERLY HILLS","4","4801","999","999","172","46","0","LOS ANGELES","LOS ANGELES R","Los Angeles County Fire Dept","SOUTH COAST","2,4,9,10,11,12,13,14,17,26,30,31,32,45,77,78"
"BIM","BIG MEADOWS (DWR)","7600","36.7152252197266","-118.843772888184","WILSOMA","7","9401","702","702","702","999","0","TULARE","KINGS R","CA Dept of Water Resources/DFM-Hydro-SMN","TULARE LAKE","2,3,4,9,10,12,14,18,30,31,32,45,82,96,97,98,99,115,246,247"
"BKL","BUCKS LAKE","5873","39.85292","-121.25135","QUINCY","5","7301","999","999","703","0","0","PLUMAS","FEATHER R","CA Dept of Water Resources/Operations and Maintenance","SACRAMENTO RIVER","2,3,14,45,73,82,203,237,238"
"BKM","BUCK MEADOWS","3200","37.8233","-120.0975","GROVELAND","6","8601","999","999","94","24","0","TUOLUMNE","TUOLUMNE R","Hetch Hetchy Water and Power","SAN JOAQUIN RIVER","2,4,9,10,11,12,13,14,26,30,31,32,45,77,78"
"BLA","BLACKS MOUNTAIN","7050","40.7698402404785","-121.199783325195","OLD STATION","5","6701","702","702","702","999","0","LASSEN","PIT R","CA Dept of Water Resources/DFM-Hydro-SMN","SACRAMENTO RIVER","2,3,4,14,18,30,31,32,45,82,103,104,105"
"BLC","BLUE CANYON","5280","39.2800979614258","-120.708694458008","EMIGRANT GAP","5","7701","50","702","50","999","0","PLACER","AMERICAN R","US Bureau of Reclamation","SACRAMENTO RIVER","2,3,4,14,16,18,30,31,32,45,82,203"
"BLD","BLOODS CREEK","7200","38.4512557983398","-120.034881591797","TAMARACK","6","8501","50","702","50","999","0","ALPINE","STANISLAUS R","US Bureau of Reclamation","SAN JOAQUIN RIVER","2,3,4,14,16,18,30,31,32,45,82"
"BLK","BLUE LAKES","8000","38.613","-119.931","KIRKWOOD","6","8301","999","999","54","19","0","ALPINE","MOKELUMNE R","Natural Resources Conservation Service","SAN JOAQUIN RIVER","2,3,4,18,30,31,32,82"
"BLM","BLACK MOUNTAIN","3625","35.394718170166","-120.352500915527","SANTA MARGARITA","3","3301","702","702","702","999","0","SAN LUIS OBISPO","SALINAS R","CA Dept of Water Resources/DFM-Hydro-SMN","CENTRAL COAST","2,4,14,16,45"
"BLN","BEN LOMOND","365","37.093","-122.075","BEN LOMOND","3","2901","999","999","144","22","0","SANTA CRUZ","SAN LORENZO R","Santa Cruz County","CENTRAL COAST","2,16,45"
"BLO","BEN LOMOND (CDF)","2630","37.132","-122.17","BEN LOMOND","2","2901","999","999","3","22","0","SANTA CRUZ","SAN LORENZO R","CA Dept of Forestry and Fire Protection","SAN FRANCISCO BAY","2,4,9,10,11,12,13,14,26,30,31,32,45,77,78"
"BLS","BLACK SPRINGS","6500","38.3758811950684","-120.194999694824","GANNS","6","8501","50","702","50","999","0","CALAVERAS","STANISLAUS R","US Bureau of Reclamation","SAN JOAQUIN RIVER","2,3,4,14,16,18,30,31,32,45,82"
"BMW","BIG MEADOWS (SCS)","8700","39.458","-119.946","In State of Nevada","8","10501","999","999","54","999","0","State of Nevada","TRUCKEE R","Natural Resources Conservation Service","NORTH LAHONTAN","2,3,4,30,31,32,82"
"BNK","BONANZA KING","6450","41.0831184387207","-122.631271362305","TRINITY CENTER","1","901","50","702","50","999","0","TRINITY","TRINITY R","US Bureau of Reclamation","NORTH COAST","2,3,4,14,16,18,30,31,32,45,82"
"BNY","BURNS CANYON","6000","34.208","-116.6217","MORONGO VALLEY","10","12001","999","999","3","48","0","SAN BERNARDINO","WHITEWATER R","CA Dept of Forestry and Fire Protection","COLORADO RIVER","2,4,9,10,12,13,14,26,45,77,78"
"BOL","BOWMAN LAKE","5390","39.4476928710938","-120.654823303223","SIERRA CITY","5","7401","702","702","702","999","0","NEVADA","YUBA R","CA Dept of Water Resources/DFM-Hydro-SMN","SACRAMENTO RIVER","2,4,9,10,12,14,16,30,31,32,45"
"BPT","BRIDGEPORT","6650","38.272","-119.289","BRIDGEPORT","8","10801","999","999","44","19","0","MONO","WALKER R","US Forest Service","NORTH LAHONTAN","2,4,9,10,11,12,13,14,26,30,31,32,45,77,78"
"BRA","SALINAS RIVER NEAR BRADLEY","443","35.9302444458008","-120.868789672852","BRADLEY","3","3301","700","999","5","37","0","MONTEREY","SALINAS R","USGS/DWR","CENTRAL COAST","1,2,14,16,20,41,45,169"
"BRE","BEAR R AT ROLLINS RESERVOIR","1945","39.133","-120.953","COLFAX","5","7501","999","999","63","14","0","PLACER","BEAR R","Pacific Gas and Electric Company, Auburn","SACRAMENTO RIVER","1,2,12,14,16,20,25,30,45"
"BRM","BEAR TRAP MEADOW","6800","36.676","-118.858","PINEHURST","7","9501","999","999","56","32","0","TULARE","KAWEAH R","US Army Corps of Engineers","TULARE LAKE","2,4,30,31,32,45,203"
"BRS","BRUSH CREEK (DWR)","3560","39.692","-121.339","BRUSH CREEK","5","7301","701","999","703","13","0","BUTTE","FEATHER R","CA Dept of Water Resources/Operations and Maintenance","SACRAMENTO RIVER","2,4,12,14,45,203"
"BUC","BUCHANAN DAM","450","37.213","-119.97","RAYMOND","6","8801","999","999","56","25","0","MADERA","CHOWCHILLA R","US Army Corps of Engineers","SAN JOAQUIN RIVER","2,6,7,15,22,23,31,32,45,76,91,94,200"
"BUD","BULLARDS BAR","2100","39.3963012695313","-121.143898010254","DOBBINS","5","7401","999","999","83","999","0","YUBA","YUBA R","Yuba County Water Agency","SACRAMENTO RIVER","2,4,9,10,12,14,16,26,45"
"BUP","BUCKS CREEK POWERHOUSE","1760","39.917","-121.333","PULGA","5","7301","999","999","60","13","0","PLUMAS","FEATHER R","Pacific Gas & Electric","SACRAMENTO RIVER","2,4,12,14,16,30,31,32,45"
"CAG","CAMP ANGELUS","5780","34.15","-116.978","YUCAIPA","4","5701","136","136","136","48","0","SAN BERNARDINO","SANTA ANA R","San Bernardino County","SOUTH COAST","2,16,45"
"CAM","CAMPTONVILLE (DWR)","2755","39.451","-121.049","CAMPTONVILLE","5","7401","701","999","703","13","0","YUBA","YUBA R","CA Dept of Water Resources/Operations and Maintenance","SACRAMENTO RIVER","2,14,45"
"CAP","CAPLES LAKE","8000","38.7107925415039","-120.041580200195","KIRKWOOD","5","7701","50","702","50","999","0","ALPINE","AMERICAN R","US Bureau of Reclamation","SACRAMENTO RIVER","2,3,4,9,10,12,14,16,17,18,26,30,31,32,45,77,78,82,116"
"CAU","CAHUILLA","278","32.974","-115.174","BRAWLEY","10","11801","999","999","59","61","0","IMPERIAL","COLORADO R","US Bureau of Land Management","COLORADO RIVER","2,4,9,10,12,13,14,30,31,32,45,77,78"
"CBO","CARIBOU PH","2986","40.085","-121.15","CHESTER","5","7301","999","999","740","9","0","PLUMAS","FEATHER R","CA Dept Water Resources and Pacific Gas and Electric","SACRAMENTO RIVER","2,4,12,14,16,45"
"CBT","CRABTREE MEADOW","10700","36.5636825561523","-118.347946166992","LONE PINE","7","9701","702","702","702","999","0","TULARE","KERN R","CA Dept of Water Resources/DFM-Hydro-SMN","TULARE LAKE","2,3,4,12,14,18,30,31,32,45,82,96,97,98,99,103,104,105,115"
"CCE","COW CREEK (USBR)","2840","40.603","-121.853","WHITMORE","5","7001","999","999","50","9","0","SHASTA","SACTO VLY NE","US Bureau of Reclamation","SACRAMENTO RIVER","2,4,14,16,30,31,32,45"
"CCH","CACHUMA LAKE","781","34.583","-119.98","SANTA YNEZ","3","4001","999","50","50","45","0","SANTA BARBARA","SANTA YNEZ R","US Bureau of Reclamation","CENTRAL COAST","2,6,14,15,22,23,45,71,76"
"CDP","CEDAR PASS","7100","41.583","-120.303","CEDARVILLE","5","6701","999","999","54","5","0","MODOC","PIT R","Natural Resources Conservation Service","SACRAMENTO RIVER","2,3,4,18,30,31,32,82"
"CFF","COFFEE CREEK RANGER STATION","2503","41.0894393920898","-122.708610534668","CARRVILLE","1","901","702","702","702","999","2","TRINITY","TRINITY R","CA Dept of Water Resources/DFM-Hydro-SMN","NORTH COAST","2,4,9,10,11,12,13,14,16,17,26,31,32,45,77,78"
"CFR","COFFEE RIDGE","3040","41.083","-122.717","CARRVILLE","1","901","999","999","50","3","0","TRINITY","TRINITY R","US Bureau of Reclamation","NORTH COAST","2,4,14,16,45"
"CFW","BEAR RIVER AT CAMP FAR WEST DAM","260","39.0498580932617","-121.315940856934","MARYSVILLE","5","7501","702","702","702","999","0","YUBA","BEAR R","CA Dept of Water Resources/DFM-Hydro-SMN","SACRAMENTO RIVER","1,2,4,6,7,14,15,16,20,22,30,31,32,45"
"CGR","CEDAR GROVE","4720","36.788","-118.659","CEDAR GROVE","6","9401","999","999","55","32","0","TULARE","KINGS R","National Park Service","SAN JOAQUIN RIVER","2,4,9,10,11,12,13,14,26,30,31,32,45,77,78"
"CGT","COLGATE PH","600","39.3308","-121.19","DOBBINS","5","7401","83","702","702","13","0","YUBA","YUBA R","CA Dept of Water Resources/DFM-Hydro-SMN","SACRAMENTO RIVER","2,4,14,16,30,31,32,45"
"CHE","CHEESEBORO","1650","34.1847","-118.7172","AGOURA HILLS","4","4301","999","999","55","46","0","VENTURA","VENTURA LA COASTAL","National Park Service","SOUTH COAST","2,4,9,10,11,12,13,14,17,30,31,32,45,77,78"
"CHI","CHICO","230","39.712","-121.783","DURHAM","5","7201","999","999","3","13","0","BUTTE","BUTTE CR","CA Dept of Forestry and Fire Protection","SACRAMENTO RIVER","2,4,9,10,11,12,13,14,26,30,31,32,45,77,78"
"CHM","CHILKOOT MEADOW","7150","37.408390045166","-119.4921875","BASS LAKE","6","9001","50","702","50","999","0","MADERA","SAN JOAQUIN R","US Bureau of Reclamation","SAN JOAQUIN RIVER","2,3,4,14,16,18,30,31,32,45,82"
"CHS","CHESTER","4525","40.283","-121.233","CHESTER","5","7301","999","999","44","9","0","PLUMAS","FEATHER R","US Forest Service","SACRAMENTO RIVER","2,4,9,10,11,12,13,14,26,30,31,32,45,77,78"
"CHT","PAJARO RIVER AT CHITTENDEN","82","36.9002304077148","-121.597724914551","CHITTENDEN","3","3201","700","700","5","29","0","SANTA CRUZ","PAJARO R","USGS/DWR","CENTRAL COAST","1,2,14,16,20,41,45,169"
"CKC","CITY CREEK RANGER STATION","2610","34.186","-117.181","SAN BERNARDINO","4","5701","999","136","136","47","0","SAN BERNARDINO","SANTA ANA R","San Bernardino County","SOUTH COAST","2,16,45"
"CLO","COVELO","1487","39.8261108398438","-123.084716796875","COVELO","1","1201","702","702","702","999","0","MENDOCINO","EEL R","CA Dept of Water Resources/DFM-Hydro-SMN","NORTH COAST","2,4,14,16,45"
"CLR","CLEAR CREEK","3300","40.639","-122.667","WHISKEYTOWN","5","7001","999","999","50","8","0","SHASTA","SACTO VLY NE","US Bureau of Reclamation","SACRAMENTO RIVER","2,4,14,16,30,31,32,45"
"CLS","COLLINS LAKE","1270","39.3376","-121.3271","MARYSVILLE","5","7401","260","260","260","13","35","YUBA","YUBA R","Brown's Valley Irrigation District","SACRAMENTO RIVER","2,4,14,16,45"
"CLV","RUSSIAN RIVER AT CLOVERDALE","107","38.8793487548828","-123.053611755371","CLOVERDALE","1","1601","58","702","702","15","0","MENDOCINO","RUSSIAN R","CA Dept of Water Resources/DFM-Hydro-SMN","NORTH COAST","1,2,14,16,20,41,45,61,146"
"CMW","CAMP MATHER WEATHER","4810","37.878168","-119.859412","HETCH HEYCHY","6","8601","999","999","74","24","2","TUOLUMNE","TUOLUMNE R","City of San Francisco","SAN JOAQUIN RIVER","2,4,10,12,14,17,18,45,77,103,122,134"
"CRL","CHARLOTTE LAKE","10400","36.7775230407715","-118.426010131836","CEDAR GROVE","7","9401","702","702","702","999","0","FRESNO","KINGS R","CA Dept of Water Resources/DFM-Hydro-SMN","TULARE LAKE","2,3,4,9,10,12,14,18,30,31,32,45,82,115"
"CRR","CRANE VALLEY RESERVOIR (PG&E)","3400","37.291","-119.526","BASS LAKE","6","9001","999","999","60","25","0","MADERA","SAN JOAQUIN R","Pacific Gas & Electric","SAN JOAQUIN RIVER","2,14,16,30,45"
"CSH","CASHMAN","4520","40.0019","-120.916","QUINCY","5","7301","999","999","55","10","0","PLUMAS","FEATHER R","National Park Service","SACRAMENTO RIVER","2,4,9,10,11,12,13,14,26,30,31,32,45,77,78"
"CSL","CENT SIERRA SNOW LAB","6900","39.325","-120.367","SODA SPRINGS","5","7401","999","999","54","14","0","NEVADA","YUBA R","Natural Resources Conservation Service","SACRAMENTO RIVER","2,3,4,30,31,32,45,82,125"
"CSU","CALIFORNIA STATE UNIV AT SACRAMENTO","25","38.555","-121.416","SACRAMENTO","5","7701","999","999","40","17","2","SACRAMENTO","AMERICAN R","National Weather Service","SACRAMENTO RIVER","2,4,9,10,12,14,16,17,45"
"CTN","COTTONWOOD CREEK NEAR BEEGUM","3400","40.317","-122.881","BEEGUM","5","6901","999","999","50","8","0","TEHAMA","COTTONWOOD CR","US Bureau of Reclamation","SACRAMENTO RIVER","2,4,14,16,30,31,32,45"
"CVM","CHERRY VALLEY MET STATION","4770","37.97466","-119.916","MATHER","6","8601","999","999","270","25","2","TUOLUMNE","TUOLUMNE R","City and County of San Francisco PUC","SAN JOAQUIN RIVER","2,4,11,12,13,14,18,31,32,45"
"CVS","CALAVERAS RANGER STATION","3360","38.196605682373","-120.367546081543","AVERY","6","8501","50","702","50","999","0","CALAVERAS","STANISLAUS R","US Bureau of Reclamation","SAN JOAQUIN RIVER","2,4,14,16,30,31,32,45"
"CVT","CALAVERAS BIG TREES","4695","38.283","-120.317","ARNOLD","6","8501","999","999","40","18","0","CALAVERAS","STANISLAUS R","National Weather Service","SAN JOAQUIN RIVER","2,45,203"
"CWD","COTTONWOOD LAKES","10150","36.483829498291","-118.177558898926","LONE PINE","9","11001","702","702","702","999","0","INYO","OWENS R","CA Dept of Water Resources/DFM-Hydro-SMN","SOUTH LAHONTAN","2,3,4,9,10,12,14,18,30,31,32,45,82,103,104,105"
"DAV","LAKE DAVIS (DWR)","5768","39.883","-120.467","BECKWOURTH","5","7301","999","999","709","14","0","PLUMAS","FEATHER R","CA Dept of Water Resources/O&M Oroville Field Division","SACRAMENTO RIVER","2,6,14,15,22,45,65"
"DBF","DUBLIN-SAN RAMON FIRE HOUSE","355","37.732","-121.927","DUBLIN","2","2001","999","999","107","23","0","CONTRA COSTA","EAST BAY","Contra Costa County","SAN FRANCISCO BAY","2,16,45"
"DCC","DRY CREEK NEAR COULTERVILLE","728","37.654","-120.312","COULTERVILLE","6","8701","999","999","204","24","0","MARIPOSA","MERCED R","Merced Irrigation District","SAN JOAQUIN RIVER","2,14,16,45"
"DDM","DEADMAN CREEK","9250","38.3315963745117","-119.654113769531","GANNS","6","8501","50","702","50","999","0","TUOLUMNE","STANISLAUS R","US Bureau of Reclamation","SAN JOAQUIN RIVER","2,3,4,9,10,14,18,30,31,32,45,77,78,82"
"DDW","DIDDY WELLS","1300","40.7","-122.1","REDDING","5","7001","999","999","50","8","0","SHASTA","SACTO VLY NE","US Bureau of Reclamation","SACRAMENTO RIVER","2,4,14,16,30,31,32,45"
"DEC","DEER CREEK DAM","2320","34.169","-117.502","RANCHO CUCAMONGA","4","5201","136","136","136","47","0","SAN BERNARDINO","LYTLE CR","San Bernardino County","SOUTH COAST","2,16,45"
"DES","DE SABLA (DWR)","2710","39.872","-121.61","PARADISE","5","7201","701","999","703","13","0","BUTTE","BUTTE CR","CA Dept of Water Resources/Operations and Maintenance","SACRAMENTO RIVER","2,14,45,203"
"DEV","DEVORE","2070","34.221111","-117.404442","VERDEMONTE","4","5201","999","999","3","47","0","SAN BERNARDINO","LYTLE CR","CA Dept of Forestry and Fire Protection","SOUTH COAST","2,4,9,10,11,12,13,14,26,30,31,32,45,77,78"
"DNN","DONNER LAKE","5945","39.322777","-120.2644","TRUCKEE","8","10501","58","999","58","0","0","NEVADA","TRUCKEE R","US Geological Survey","NORTH LAHONTAN","2,4,6,14,15,22,30,31,32,45"
"DNP","DON PEDRO RESERVOIR","830","37.702","-120.421","LA GRANGE","6","8601","999","999","803","24","0","TUOLUMNE","TUOLUMNE R","USGS/USACE","SAN JOAQUIN RIVER","2,6,15,22,23,45,74,76,94,200"
"DNV","DOWNIEVILLE","2920","39.5586","-120.8292","DOWNIEVILLE","5","7401","702","702","702","14","0","SIERRA","YUBA R","CA Dept of Water Resources/DFM-Hydro-SMN","SACRAMENTO RIVER","2,4,14,16,30,31,32,45"
"DOY","DOYLE CROSSING","5670","40.1192","-120.483","JANESVILLE","5","7301","999","999","707","10","0","PLUMAS","FEATHER R","CA Dept of Water Resources/North Region Office","SACRAMENTO RIVER","2,4,9,10,12,14,16,17,26,30,31,32,45,77,78,103,104,105,115,123,124,126,127,128,129,130,131,132,133,134"
"DPH","DRUM POWER HOUSE","3400","39.264","-120.767","EMIGRANT GAP","5","7501","999","999","60","14","0","PLACER","BEAR R","Pacific Gas & Electric","SACRAMENTO RIVER","2,4,12,14,16,30,31,32,45"
"DPW","DON PEDRO RESERVOIR WEATHER","830","37.70028","-120.417712","LAGRANGE","6","8601","999","203","203","23","2","TUOLUMNE","TUOLUMNE R","Turlock Irrigation District","SAN JOAQUIN RIVER","2,4,10,12,14,17,26,36,45,77,132,134,258"
"DRC","DEER CK FOREBAY (PG&E)","4455","39.3","-120.825","NEVADA CITY","5","7401","999","999","60","14","0","NEVADA","YUBA R","Pacific Gas & Electric","SACRAMENTO RIVER","2,4,12,14,16,30,31,32,45"
"DRF","SMITH RIVER AT DR FINE BRIDGE","63","41.8809013366699","-124.136688232422","CRESCENT CITY","1","101","409","702","409","999","0","DEL NORTE","SMITH R","USGS/DWR-DFM-Hydro-SMN","NORTH COAST","1,2,14,16,45,169"
"DSC","DESCANSO","3480","32.857","-116.622","EL CAJON","4","6101","999","999","44","60","0","SAN DIEGO","SAN DIEGO R","US Forest Service","SOUTH COAST","2,4,9,10,11,12,13,14,26,30,31,32,45,77,78"
"DSS","DISMAL SWAMP","7050","41.993","-120.165","FORT BIDWELL","8","10201","999","999","54","5","0","MODOC","SURPRISE VALLEY","Natural Resources Conservation Service","NORTH LAHONTAN","2,3,4,30,31,32,82"
"DTV","DEATH VALLEY","-194","36.467","-116.867",,"9","11301","999","999","40","34","0","INYO","AMARGOSA R","National Weather Service","SOUTH LAHONTAN","2,45"
"DUC","DUDLEY RANCH BELOW COULTERVILLE","3654","37.741","-120.133",,"6","8701","999","999","204","24","0","MARIPOSA","MERCED R","Merced Irrigation District","SAN JOAQUIN RIVER","2,4,14,16,30,31,32,45"
"DVB","DANVILLE LIBRARY","364","37.8208","-121.9956","DANVILLE","2","2801","999","999","107","23","0","CONTRA COSTA","SF BAY","Contra Costa County","SAN FRANCISCO BAY","2,16,45"
"DVR","DAVIS RANCH","550","40.35","-122.45","COTTONWOOD","5","6901","999","999","50","8","0","TEHAMA","COTTONWOOD CR","US Bureau of Reclamation","SACRAMENTO RIVER","2,4,14,16,45"
"DYC","DAY CANYON","2240","34.168","-117.537","RANCHO CUCAMONGA","4","5201","136","136","136","47","0","SAN BERNARDINO","LYTLE CR","San Bernardino County","SOUTH COAST","2,16,45"
"EBB","EBBETTS PASS","8700","38.561","-119.808","MARKLEEVILLE","8","10701","999","999","54","19","0","ALPINE","CARSON R","Natural Resources Conservation Service","NORTH LAHONTAN","2,3,4,18,30,31,32,82"
"EGL","EAGLE CREEK","6700","35.983","-118.641","JOHNSONDALE","7","9601","999","999","56","39","0","TULARE","TULE R","US Army Corps of Engineers","TULARE LAKE","2,4,45"
"EGN","LAGUNA CR - FLORIN NEAR EAGLES NEST ROAD","100","38.485279","-121.260834","FLORIN","5","6501","999","999","134","0","0","SACRAMENTO","SACRAMENTO R","Sacramento County","SACRAMENTO RIVER","1,2,16,45"
"ELG","ELK GROVE FISH HATCHERY","45","38.421","-121.374","ELK GROVE","6","8201","999","999","134","17","0","SACRAMENTO","COSUMNES R","Sacramento County","SAN JOAQUIN RIVER","2,45"
"ELK","ELK VALLEY","1705","41.9880409240723","-123.718338012695","CRESCENT CITY","1","101","409","702","409","999","0","DEL NORTE","SMITH R","USGS/DWR-DFM-Hydro-SMN","NORTH COAST","2,14,16,45"
"EP5","ECHO PEAK 5","7800","38.849","-120.079","SOUTH LAKE","8","10601","999","999","54","18","0","EL DORADO","LAKE TAHOE","Natural Resources Conservation Service","NORTH LAHONTAN","2,3,4,18,30,31,32,82"
"EPK","EAST PARK RESERVOIR","1205","39.367","-122.517","STONEYFORD","5","7251","999","999","50","12","0","COLUSA","STONY CR","US Bureau of Reclamation","SACRAMENTO RIVER","1,2,4,6,9,10,12,14,15,16,17,20,22,24,26,30,31,32,36,45,71"
"ERK","EUREKA WOODLEY ISLAND","20","40.8","-124.167","EUREKA","1","1201","999","999","40","6","0","HUMBOLDT","EEL R","National Weather Service","NORTH COAST","2,45"
"ERY","ELLERY LAKE","9645","37.9349670410156","-119.232200622559","TUOLUMNE MEADOWS","9","10901","999","999","702","999","0","MONO","MONO LAKE","CA Dept of Water Resources/DFM-Hydro-SMN","SOUTH LAHONTAN","2,4,9,10,12,14,18,30,31,32,45,77,78,103,104,105,115"
"FBS","FORBESTOWN","2840","39.517","-121.2661","FORBESTOWN","5","7301","1","999","60","13","0","BUTTE","FEATHER R","Pacific Gas & Electric","SACRAMENTO RIVER","2,4,12,14,16,30,31,32,45"
"FCH","FANCHER CREEK","920","36.8839","-119.4658","ACADEMY","7","9401","999","999","3","31","0","FRESNO","KINGS R","CA Dept of Forestry and Fire Protection","TULARE LAKE","2,4,9,10,11,12,13,14,30,31,32,45"
"FDL","FIDDLETOWN","2160","38.533","-120.7","JACKSON","6","8201","999","999","50","18","0","AMADOR","COSUMNES R","US Bureau of Reclamation","SAN JOAQUIN RIVER","2,45"
"FEN","FENCE MEADOW","5048","36.961","-119.175","SANGER","6","9401","999","999","44","31","0","FRESNO","KINGS R","US Forest Service","SAN JOAQUIN RIVER","2,4,9,10,11,12,13,14,26,30,31,32,45,77,78"
"FLD","FOLSOM DAM - FOLSOM POINT (DYKE 8)","350","38.693054","-121.129723","FOLSOM","5","7701","999","999","40","17","13","SACRAMENTO","AMERICAN R","National Weather Service","SACRAMENTO RIVER","2,4,9,10,12,16,17,45"
"FLL","FALLEN LEAF LAKE","6250","38.932","-120.056","SOUTH LAKE TAHOE","8","10601","999","999","54","18","0","EL DORADO","LAKE TAHOE","Natural Resources Conservation Service","NORTH LAHONTAN","2,3,4,18,30,31,32,82"
"FO2","FORT ORD #2","490","36.627","-121.786","SEASIDE","3","3301","999","999","402","29","0","MONTEREY","SALINAS R","US Army","CENTRAL COAST","2,4,9,10,11,12,13,14,17,26,30,31,32,45,77,78"
"FOR","FOUR TREES","5202","39.81278","-121.32168","BUCKS LAKE","5","7301","999","999","709","0","0","PLUMAS","FEATHER R","CA Dept of Water Resources/O&M Oroville Field Division","SACRAMENTO RIVER","2,3,14,45,82,237,238"
"FRD","FRENCHMAN DAM","5517","39.883","-120.183","BECKWOURTH","5","7301","999","999","709","14","0","PLUMAS","FEATHER R","CA Dept of Water Resources/O&M Oroville Field Division","SACRAMENTO RIVER","2,6,14,15,22,45,65"
"FRN","FORNI RIDGE","7600","38.8039703369141","-120.215919494629","STRAWBERRY","5","7701","50","702","50","999","0","EL DORADO","AMERICAN R","US Bureau of Reclamation","SACRAMENTO RIVER","2,3,4,14,16,18,30,31,32,45,82"
"FRO","FRESNO WB AIRPORT","328","36.767","-119.717","FRESNO","7","9801","999","999","40","31","0","FRESNO","TULARE LAKE","National Weather Service","TULARE LAKE","2,45"
"FRT","FRIANT DAM","578","36.994499206543","-119.697776794434","FRIANT","6","9001","50","702","50","999","0","FRESNO","SAN JOAQUIN R","US Bureau of Reclamation","SAN JOAQUIN RIVER","2,4,9,10,12,14,16,17,30,31,32,45,103,104,105,209"
"FSW","EEL RIVER AT FORT SEWARD","320","40.2182006835938","-123.632530212402","FORT SEWARD","1","1201","409","702","409","7","0","HUMBOLDT","EEL R","USGS/DWR-DFM-Hydro-SMN","NORTH COAST","1,2,14,16,20,45,169"
"GAS","GASQUET RANGER STATION","384","41.8451614379883","-123.965103149414","CRESCENT CITY","1","101","409","702","409","999","0","DEL NORTE","SMITH R","USGS/DWR-DFM-Hydro-SMN","NORTH COAST","2,4,12,14,16,45"
"GIB","GIBSON","1633","41.0222206115723","-122.399169921875","CASTELLA","5","6501","702","702","702","999","0","SHASTA","SACRAMENTO R","CA Dept of Water Resources/DFM-Hydro-SMN","SACRAMENTO RIVER","2,4,14,16,30,31,32,45"
"GIN","GIN FLAT","7050","37.767","-119.773","CRANE FLAT","6","8701","702","702","702","25","0","MARIPOSA","MERCED R","CA Dept of Water Resources/DFM-Hydro-SMN","SAN JOAQUIN RIVER","2,3,4,9,10,12,14,18,26,29,30,31,32,45,77,78,82,96,97,98,99,103,104,105,106,107,108,115,116,117,118,119,120,121,194,195,196,197,198,199"
"GKS","GREEK STORE","5600","39.0746803283691","-120.561599731445","MICHIGAN BLUFF","5","7701","50","702","50","999","0","PLACER","AMERICAN R","US Bureau of Reclamation","SACRAMENTO RIVER","2,3,4,14,16,18,30,31,32,45,82"
"GLH","GLEN HELEN REGIONAL PARK","2040","34.209","-117.405","SAN BERNARDINO","4","5201","136","136","136","47","0","SAN BERNARDINO","LYTLE CR","San Bernardino County","SOUTH COAST","2,16,45"
"GLR","GILMORE RANCH","220","38.045","-120.987","BELLOTA","6","8401","999","999","139","18","0","SAN JOAQUIN","CALAVERAS R","San Joaquin County","SAN JOAQUIN RIVER","2,16,45"
"GNF","GIANT FOREST (USACE)","6650","36.562","-118.765","GIANT FOREST","7","9501","999","999","56","32","0","TULARE","KAWEAH R","US Army Corps of Engineers","TULARE LAKE","2,3,4,14,25,30,31,32,45,82,203"
"GNL","GIANELLI MEADOW","8400","38.204308","-119.893188","STRAWBERRY","6","8501","50","702","50","18","0","TUOLUMNE","STANISLAUS R","US Bureau of Reclamation","SAN JOAQUIN RIVER","2,3,4,14,16,18,30,31,32,45,82"
"GOL","GOLD LAKE","6750","39.674767","-120.617167","SIERRA CITY","5","7301","999","999","703","0","2","SIERRA","FEATHER R","CA Dept of Water Resources/Operations and Maintenance","SACRAMENTO RIVER","2,3,4,14,45,82"
"GRD","GIRARD","4800","41.133","-122.283","CASTELLA","5","6501","999","999","50","3","0","SHASTA","SACRAMENTO R","US Bureau of Reclamation","SACRAMENTO RIVER","2,4,14,16,30,31,32,45"
"GRE","GREENVILLE","3560","40.1394","-120.9412","GREEENVILLE","5","7301","709","709","709","10","0","PLUMAS","FEATHER R","CA Dept of Water Resources/O&M Oroville Field Division","SACRAMENTO RIVER","2,4,12,14,16,30,31,32,45"
"GRM","GREEN MOUNTAIN","7900","37.5495986938477","-119.232559204102","MAMMOTH LAKES","6","9001","50","702","50","999","0","MADERA","SAN JOAQUIN R","US Bureau of Reclamation","SAN JOAQUIN RIVER","2,3,4,14,16,18,30,31,32,45,82"
"GRN","GREEN SPRINGS","1020","37.833","-120.5","HETCH HETCHY","6","8601","999","999","3","24","0","TUOLUMNE","TUOLUMNE R","CA Dept of Forestry and Fire Protection","SAN JOAQUIN RIVER","2,4,9,10,11,12,13,14,30,31,32,45"
"GRV","GRAVEYARD MEADOW","6900","37.4634399414063","-119.292892456055","CEDAR CREST","6","9001","50","702","50","999","0","MADERA","SAN JOAQUIN R","US Bureau of Reclamation","SAN JOAQUIN RIVER","2,3,4,14,16,18,30,31,32,45,82"
"GRZ","GRIZZLY RIDGE","6900","39.917","-120.645","QUINCY","5","7301","999","999","703","14","0","PLUMAS","FEATHER R","CA Dept of Water Resources/Operations and Maintenance","SACRAMENTO RIVER","2,3,4,14,18,30,31,32,45,82,237,238"
"GTM","GOAT MOUNTAIN","4520","37.2714004516602","-119.550170898438","OAKHURST","6","9001","50","702","50","999","0","MADERA","SAN JOAQUIN R","US Bureau of Reclamation","SAN JOAQUIN RIVER","2,4,14,16,30,31,32,45"
"GTW","GEORGETOWN (USBR)","3250","38.9245719909668","-120.789703369141","GEORGETOWN","5","7701","50","702","50","999","0","EL DORADO","AMERICAN R","US Bureau of Reclamation","SACRAMENTO RIVER","2,4,14,16,30,31,32,45"
"GVY","GRASS VALLEY","2400","39.2052764892578","-121.068336486816","GRASS VALLEY","5","7401","702","702","702","999","0","NEVADA","YUBA R","CA Dept of Water Resources/DFM-Hydro-SMN","SACRAMENTO RIVER","2,4,14,16,30,31,32,45"
"HCK","HOCKETT MEADOW (USACE)","8500","36.371","-118.651","MINERAL KING","7","9501","999","999","56","32","0","TULARE","KAWEAH R","US Army Corps of Engineers","TULARE LAKE","2,45"
"HDL","HOADLEY","4580","40.683","-122.75","FRENCH GULCH","1","901","999","999","50","8","0","SHASTA","TRINITY R","US Bureau of Reclamation","NORTH COAST","2,4,14,16,45"
"HDZ","HERNANDEZ","3752","36.383","-120.854","BITTERWATER","3","3101","999","999","3","30","0","SAN BENITO","SAN BENITO R","CA Dept of Forestry and Fire Protection","CENTRAL COAST","2,4,9,10,11,12,13,14,26,30,31,32,45,77,78"
"HEM","HETCH HETCHY MET STATION","3920","37.944934","-119.78315","HETCH HETCHY","6","8601","999","999","74","24","0","TUOLUMNE","TUOLUMNE R","City of San Francisco","SAN JOAQUIN RIVER","2,4,12,14,31,32,45"
"HGM","HAGANS MEADOW","8000","38.853","-119.94","SOUTH LAKE TAHOE","8","10601","999","999","54","19","0","EL DORADO","LAKE TAHOE","Natural Resources Conservation Service","NORTH LAHONTAN","2,3,4,18,30,31,32,82"
"HHM","HIGHLAND MEADOW","8700","38.4906616210938","-119.805625915527","BEAR VALLEY","6","8301","702","702","702","999","0","ALPINE","MOKELUMNE R","CA Dept of Water Resources/DFM-Hydro-SMN","SAN JOAQUIN RIVER","2,3,4,9,10,12,14,17,18,30,31,32,45,82,103,104,105,194,195,196,197,198,199,246,247"
"HIG","HIGHLAND LAKES","6030","41.0917816162109","-122.491561889648","GIBSON","1","901","50","702","50","999","0","TRINITY","TRINITY R","US Bureau of Reclamation","NORTH COAST","2,3,4,14,18,45,82"
"HLC","HILLCREST","3440","40.867","-121.883","BURNEY","5","6701","999","999","50","9","0","SHASTA","PIT R","US Bureau of Reclamation","SACRAMENTO RIVER","2,4,14,16,30,31,32,45"
"HLD","HIGHLAND PEAK","2520","37.8145","-121.8084","TASSAJARA","2","8101","999","999","107","23","0","CONTRA COSTA","DELTA","Contra Costa County","SAN FRANCISCO BAY","2,16,45"
"HLH","HELL HOLE (USFS)","4580","39.0717","-120.4217","HELL HOLE RESERVOIR","5","7701","999","999","44","14","0","PLACER","AMERICAN R","US Forest Service","SACRAMENTO RIVER","2,4,9,10,11,12,13,14,26,45,77,78"
"HMB","HUMBUG","6500","40.115","-121.368","BELDON","5","7301","709","709","709","9","0","PLUMAS","FEATHER R","CA Dept of Water Resources/O&M Oroville Field Division","SACRAMENTO RIVER","2,3,14,45,73,82"
"HNT","HUNTINGTON LAKE (USBR)","7000","37.2275695800781","-119.220481872559","LAKESHORE","6","9001","50","702","50","999","0","FRESNO","SAN JOAQUIN R","US Bureau of Reclamation","SAN JOAQUIN RIVER","2,3,4,6,14,15,16,18,30,31,32,45,82,203"
"HNY","HONEYDEW","370","40.2374992370605","-124.132217407227","HONEYDEW","1","1401","409","702","409","999","0","HUMBOLDT","MATTOLE R","USGS/DWR-DFM-Hydro-SMN","NORTH COAST","2,4,14,16,30,31,32,45"
"HPA","TRINITY RIVER AT HOOPA","330","41.0498504638672","-123.673667907715","HOOPA","1","901","409","702","409","2","0","HUMBOLDT","TRINITY R","USGS/DWR-DFM-Hydro-SMN","NORTH COAST","1,2,14,16,20,25,45,169"
"HRZ","HIRZ","3200","40.9","-122.25","O'BRIEN","5","6501","999","999","50","8","0","SHASTA","SACRAMENTO R","US Bureau of Reclamation","SACRAMENTO RIVER","2,4,14,16,30,31,32,45"
"HSS","HOSSACK","7100","36.181","-118.619","CAMP NELSON","7","9601","999","999","56","32","0","TULARE","TULE R","US Army Corps of Engineers","TULARE LAKE","2,4,30,31,32,45,203"
"HTC","HAT CREEK #1 PH (PG&E)","3015","40.933","-121.55","BURNEY","5","6701","999","999","60","9","0","LASSEN","PIT R","Pacific Gas & Electric","SACRAMENTO RIVER","2,12,14,16,30,31,32,45"
"HTG","HASTINGS","1824","36.388","-121.551","CARMEL","3","3601","999","999","3","29","0","MONTEREY","CARMEL R","CA Dept of Forestry and Fire Protection","CENTRAL COAST","2,4,9,10,11,12,13,14,17,26,30,31,32,45,77,78"
"HTH","HETCH HETCHY","3870","37.95","-119.783","YOSEMITE","6","8601","999","999","94","25","0","TUOLUMNE","TUOLUMNE R","Hetch Hetchy Water and Power","SAN JOAQUIN RIVER","2,6,15,22,23,45,74,76,110,203"
"HVN","HEAVENLY VALLEY","8800","38.929","-119.917","WOODFORDS","8","10601","999","999","54","19","0","EL DORADO","LAKE TAHOE","Natural Resources Conservation Service","NORTH LAHONTAN","2,3,4,18,30,31,32,82"
"HYS","HUYSINK","6600","39.281421661377","-120.529632568359","CISCO","5","7701","50","702","50","999","0","PLACER","AMERICAN R","US Bureau of Reclamation","SACRAMENTO RIVER","2,3,4,14,16,18,30,31,32,45,82"
"IDC","INDEPENDENCE CAMP","7000","39.452588","-120.298548","TRUCKEE","8","10501","999","999","54","13","0","SIERRA","TRUCKEE R","Natural Resources Conservation Service","NORTH LAHONTAN","2,3,4,18,30,31,32,82"
"IDP","INDEPENDENCE LAKE (SCS)","8450","39.435","-120.322","TRUCKEE","8","10501","999","999","54","14","0","NEVADA","TRUCKEE R","Natural Resources Conservation Service","NORTH LAHONTAN","2,3,4,18,30,31,32,82"
"INN","INDEPENDENCE CREEK","6500","39.494","-120.293","TRUCKEE","8","10501","999","999","54","14","0","SIERRA","TRUCKEE R","Natural Resources Conservation Service","NORTH LAHONTAN","2,3,4,18,30,31,32,82"
"INP","INDEPENDENCE LAKE NEAR TRUCKEE","6921","39.452","-120.29","TRUCKEE","8","10501","999","999","58","14","0","SIERRA","TRUCKEE R","US Geological Survey","NORTH LAHONTAN","2,4,6,14,15,22,30,31,32,45"
"JAR","JARBO GAP","2700","39.736","-121.489","PARADISE","5","7301","999","999","3","13","0","BUTTE","FEATHER R","CA Dept of Forestry and Fire Protection","SACRAMENTO RIVER","2,4,9,10,11,12,13,14,17,26,30,31,32,45,77,78"
"JDP","JORDAN PEAK","6812","40.036","-120.2889","PORTOLA","5","7301","999","999","709","10","0","PLUMAS","FEATHER R","CA Dept of Water Resources/O&M Oroville Field Division","SACRAMENTO RIVER","2,4,9,10,12,14,17,26,30,31,32,45,77,78,103,104,105,115,123,124,126,127,128,129,130,131,132,133,134"
"JUL","JULIAN","4240","33.076","-116.591",,"4","6101","999","999","3","55","0","SAN DIEGO","SAN DIEGO R","CA Dept of Forestry and Fire Protection","SOUTH COAST","2,4,9,10,11,12,13,14,26,30,31,32,45,77,78"
"KP3","KERN PH 3","2703","35.7759017944336","-118.436058044434","KERNVILLE","7","9701","999","999","68","999","0","KERN","KERN R","Southern California Edison Company, Big Creek","TULARE LAKE","2,4,9,10,11,12,13,14,16,26,31,32,45,77,78"
"KPH","KERN CANYON PH (PG&E)","570","35.433","-118.783","BAKERSFIELD","7","9701","999","999","60","39","0","KERN","KERN R","Pacific Gas & Electric","TULARE LAKE","2,4,12,14,16,30,31,32,45"
"KPI","KERN POWER HOUSE INTAKE","3654","35.9458","-118.47686","KERNVILLE","7","9701","999","168","168","39","2","KERN","KERN R","Southern California Edison Company","TULARE LAKE","2,4,16,31,32,45"
"KSP","KAISER POINT","9200","37.2981796264648","-119.103370666504","LAKESHORE","6","9001","50","702","50","999","0","FRESNO","SAN JOAQUIN R","US Bureau of Reclamation","SAN JOAQUIN RIVER","2,3,4,14,16,18,30,31,32,45,82"
"KTL","KETTLE ROCK","7300","40.14","-120.715","GREENVILLE","5","7301","703","999","703","10","0","PLUMAS","FEATHER R","CA Dept of Water Resources/Operations and Maintenance","SACRAMENTO RIVER","2,3,4,14,18,30,31,32,45,82"
"KTT","KETTLEMAN HILLS","810","36.033","-120.057","KETTLEMAN CITY","7","9801","999","999","59","30","0","KINGS","TULARE LAKE","US Bureau of Land Management","TULARE LAKE","2,4,9,10,12,13,14,30,31,32,45,77,78"
"LAP","LA PORTE (DWR)","4980","39.681","-120.983","LA PORTE","5","7301","701","703","703","14","0","PLUMAS","FEATHER R","CA Dept of Water Resources/Operations and Maintenance","SACRAMENTO RIVER","2,14,45,203"
"LBD","LOBDELL LAKE","9200","38.44","-119.377","BRIDGEPORT","8","10801","999","999","54","19","0","MONO","WALKER R","Natural Resources Conservation Service","NORTH LAHONTAN","2,3,4,18,30,31,32,82"
"LCN","LINCOLN","200","38.882","-121.272","LINCOLN","5","7701","999","999","3","17","0","PLACER","AMERICAN R","CA Dept of Forestry and Fire Protection","SACRAMENTO RIVER","2,4,9,10,11,12,13,14,26,30,31,32,45,77,78"
"LEG","SOUTH FORK EEL RIVER AT LEGGETT","747","39.8745956420898","-123.720581054688","GARBERVILLE","1","1201","409","702","409","11","0","MENDOCINO","EEL R","USGS/DWR-DFM-Hydro-SMN","NORTH COAST","1,2,14,16,20,45"
"LFH","LEWISTON FISH HATCHERY","1870","40.727","-122.793","LEWISTON","1","901","50","999","50","8","0","TRINITY","TRINITY R","US Bureau of Reclamation","NORTH COAST","2,9,10,12,14,16,25,26,30,45,64,203"
"LKS","LAKESHORE","1100","40.867","-122.383","LAKE SHASTA CITY","5","6501","999","999","50","8","0","SHASTA","SACRAMENTO R","US Bureau of Reclamation","SACRAMENTO RIVER","2,4,14,16,30,31,32,45"
"LON","LOON LAKE (SMUD)","6410","38.983","-120.323","MEEKS BAY","5","7701","999","999","85","18","0","EL DORADO","AMERICAN R","Sacramento Municipal Utility District","SACRAMENTO RIVER","2,4,6,15,20,22,25,30,31,32,45,48"
"LSP","LAKE SPAULDING (PG&E)","5156","39.317","-120.633","EMIGRANT GAP","5","7401","999","999","60","14","0","NEVADA","YUBA R","Pacific Gas & Electric","SACRAMENTO RIVER","2,12,14,16,30,31,32,45"
"LVM","LEAVITT MEADOWS","7200","38.305","-119.552","BRIDGEPORT","8","10801","999","999","54","19","0","MONO","WALKER R","Natural Resources Conservation Service","NORTH LAHONTAN","2,3,4,18,30,31,32,82"
"LVO","LIVE OAK CANYON - LIVE OAK DAM","1510","34.134","-117.744","LA VERNE","4","4801","999","999","170","47","0","LOS ANGELES","LOS ANGELES R","Los Angeles County","SOUTH COAST","2,16,45"
"LVT","LEAVITT LAKE","9600","38.282","-119.621",,"8","10801","999","54","54","19","0","MONO","WALKER R","Natural Resources Conservation Service","NORTH LAHONTAN","2,3,4,18,30,31,32,45,82"
"LYC","LYTLE CREEK","2792","34.234","-117.48","SAN BERNARDINO","4","5701","999","999","44","47","0","SAN BERNARDINO","SANTA ANA R","US Forest Service","SOUTH COAST","2,4,9,10,11,12,13,14,26,30,31,32,45,77,78"
"MAP","MAPEL RANCH","2640","36.039","-120.483","COALINGA","7","10001","703","703","703","30","0","FRESNO","JACALITOS CR","CA Dept of Water Resources/Operations and Maintenance","TULARE LAKE","2,14,45"
"MBB","MERCED RIVER NEAR BRICEBURG","1150","37.5989","-119.9781","BRICEBURG","6","8701","820","820","820","25","0","MARIPOSA","MERCED R","Mariposa Public Utility District","SAN JOAQUIN RIVER","1,2,4,14,16,20,30,31,32,41,45"
"MBR","MEADOWBROOK (PG&E)","8021","37.082","-118.863","SHAVER LAKE","7","9401","999","999","60","26","0","FRESNO","KINGS R","Pacific Gas & Electric","TULARE LAKE","2,4,12,14,16,26,29,30,31,32,45,104,105"
"MCL","MCCLOUD DAM (PG&E)","2690","41.13","-122.071","MCCLOUD","5","6601","999","999","60","3","0","SHASTA","MC CLOUD R","Pacific Gas & Electric","SACRAMENTO RIVER","2,9,10,12,14,16,30,45"
"MCM","MORRISON CREEK AT MACK ROAD","13","38.478","-121.458","FLORIN","5","6501","999","999","500","17","0","SACRAMENTO","SACRAMENTO R","Sacramento Dept of Public Works","SACRAMENTO RIVER","1,2,16,45"
"MDL","MUD LAKE","7900","38.615","-120.14","BEAR VALLEY","6","8301","999","999","85","18","0","AMADOR","MOKELUMNE R","Sacramento Municipal Utility District","SAN JOAQUIN RIVER","2,3,4,25,30,31,32,45,82"
"MDZ","MENDEZ RANCH","322","38.062","-120.924","BELLOTA","6","8401","999","999","139","18","0","STANISLAUS","CALAVERAS R","San Joaquin County","SAN JOAQUIN RIVER","2,16,45"
"MED","MEDICINE LAKE","6700","41.5913887023926","-121.610832214355","BARTLE","5","6701","50","702","50","999","0","SISKIYOU","PIT R","US Bureau of Reclamation","SACRAMENTO RIVER","2,3,4,14,18,45,82"
"MHH","MOCCASIN MET STATION","930","37.810151","-120.296861","MOCCASIN","6","8601","999","999","182","23","2","TUOLUMNE","TUOLUMNE R","San Francisco PUC","SAN JOAQUIN RIVER","2,4,9,10,14,26,31,32,45,77,103"
"MHP","MAMMOTH PASS (USBR)","9300","37.6124000549316","-119.031745910645","MAMMOTH LAKES","9","11001","50","702","50","999","0","MONO","OWENS R","US Bureau of Reclamation","SOUTH LAHONTAN","2,3,4,14,16,18,30,31,32,45,73,82"
"MIN","MINERAL","4957","40.3480606079102","-121.609718322754","MINERAL","5","7001","702","702","702","999","0","TEHAMA","SACTO VLY NE","CA Dept of Water Resources/DFM-Hydro-SMN","SACRAMENTO RIVER","2,4,14,16,30,31,32,45,203"
"MNH","MOUNTAIN HOME","5400","36.242","-118.71","MILO","7","9601","999","999","56","32","0","TULARE","TULE R","US Army Corps of Engineers","TULARE LAKE","2,4,45"
"MNT","MONITOR PASS","8350","38.67","-119.615",,"8","10701","999","999","54","19","0","ALPINE","CARSON R","Natural Resources Conservation Service","NORTH LAHONTAN","2,3,4,18,30,31,32,82"
"MPG","MARIPOSA GROVE","6400","37.5","-119.6","SUGAR PINE","6","8701","999","3","3","25","0","MARIPOSA","MERCED R","CA Dept of Forestry and Fire Protection","SAN JOAQUIN RIVER","2,4,9,10,11,12,13,14,18,30,31,32,45,77,78,103,104,105,106,107,108,123,124,127,128,133,194,195,196,197,198,199,276,277,279,280"
"MRD","EEL RIVER SF NR MIRANDA (AT SYLVANDALE)","218","40.1818084716797","-123.776145935059","MIRANDA","1","1201","409","702","409","7","0","HUMBOLDT","EEL R","USGS/DWR-DFM-Hydro-SMN","NORTH COAST","1,2,14,16,20,45,169"
"MRL","MARLETTE LAKE","8000","39.173","-119.905","INCLINE VILLAGE","8","10601","999","999","54","99","0","State of Nevada","LAKE TAHOE","Natural Resources Conservation Service","NORTH LAHONTAN","2,3,4,18,30,31,32,82"
"MRN","MORMON ROCK","3300","34.317","-117.502","SAN BERNARDINO","4","5201","999","999","44","47","0","SAN BERNARDINO","LYTLE CR","US Forest Service","SOUTH COAST","2,4,9,10,11,12,13,14,17,26,30,31,32,45,77,78"
"MRP","MARIPOSA RANGER STATION","2250","37.504166","-119.986946","MARIPOSA","6","8701","999","999","3","25","0","MARIPOSA","MERCED R","CA Dept of Forestry and Fire Protection","SAN JOAQUIN RIVER","2,4,9,10,11,12,13,14,26,30,31,32,45,77,78"
"MRS","MORMON SLOUGH AT BELLOTA (USACE)","130","38.054","-121.012","BELLOTA","6","8401","999","999","56","17","0","CALAVERAS","CALAVERAS R","US Army Corps of Engineers","SAN JOAQUIN RIVER","1,2,14,20,45,169"
"MTF","MOUNTAIN REST","4100","37.054","-119.371","FRESNO","6","9001","999","999","44","25","0","FRESNO","SAN JOAQUIN R","US Forest Service","SAN JOAQUIN RIVER","2,4,9,10,11,12,13,14,26,30,31,32,45,77,78"
"MTS","MOUNT SHASTA","3545","41.314998626709","-122.316940307617","MOUNT SHASTA CITY","5","6501","702","702","702","999","0","SISKIYOU","SACRAMENTO R","CA Dept of Water Resources/DFM-Hydro-SMN","SACRAMENTO RIVER","2,4,14,16,30,31,32,45,203"
"MTY","MONTEREY AIRPORT","217","36.590557","-121.847504","MONTEREY","3","3601","999","999","40","29","13","MONTEREY","CARMEL R","National Weather Service","CENTRAL COAST","2,45"
"MUD","MUD SPRINGS","3400","40.7121315002441","-123.289207458496","WEAVERVILLE","1","901","702","702","702","999","0","TRINITY","TRINITY R","CA Dept of Water Resources/DFM-Hydro-SMN","NORTH COAST","2,4,12,14,16,45"
"MUM","MUMBO BASIN","5650","41.1978187561035","-122.52596282959","MOUNT SHASTA CITY","1","901","50","702","50","999","0","TRINITY","TRINITY R","US Bureau of Reclamation","NORTH COAST","2,3,4,14,18,30,31,32,45,82"
"MVD","MUCK VALLEY DIVERSION (PG&E)","4300","41.015","-121.155","MCARTHUR","5","6701","999","999","60","4","0","SHASTA","PIT R","Pacific Gas & Electric","SACRAMENTO RIVER","1,2,14,16,30,45"
"NCS","NEWCASTLE-PINEVIEW SCHOOL","890","38.874","-121.135","ROSEVILLE","5","7701","999","999","73","17","0","PLACER","AMERICAN R","City of Roseville","SACRAMENTO RIVER","2,16,45"
"NFR","NORTH FORK R S","2630","37.233","-119.5","BASS LAKE","6","9001","999","999","44","25","0","MADERA","SAN JOAQUIN R","US Forest Service","SAN JOAQUIN RIVER","2,4,9,10,11,12,13,14,26,30,31,32,45,77,78,203"
"NHW","NEW HOGAN WEATHER","554","38.1508","-120.8156","VALLEY SPRINGS","6","8401","999","999","56","18","11","CALAVERAS","CALAVERAS R","US Army Corps of Engineers","SAN JOAQUIN RIVER","2,4,9,10,12,14,17,26,29,45,47,175"
"NLS","NOEL SPRING","5100","39.538","-122.667","ELK CREEK","1","7251","999","999","56","12","0","GLENN","STONY CR","US Army Corps of Engineers","NORTH COAST","2,3,4,18,30,31,32,45,82"
"NMS","NEW MELONES","1400","37.9519386291504","-120.525833129883","SONORA","6","8501","50","702","50","999","0","CALAVERAS","STANISLAUS R","US Bureau of Reclamation","SAN JOAQUIN RIVER","2,4,14,16,30,31,32,45"
"NTP","NATURE POINT","5150","37.3402214050293","-119.361633300781","COARSEGOLD","6","9001","50","702","50","999","0","MADERA","SAN JOAQUIN R","US Bureau of Reclamation","SAN JOAQUIN RIVER","2,4,14,16,30,31,32,45"
"ODA","ORINDA FIRE STATION 43","700","37.899588","-122.170402","ORINDA","2","2001","999","999","107","21","0","CONTRA COSTA","EAST BAY","Contra Costa County","SAN FRANCISCO BAY","2,16,45"
"OGO","OGO RANGER STATION","1300","40.422779083252","-122.737777709961","REDDING","5","6901","702","702","702","999","0","SHASTA","COTTONWOOD CR","CA Dept of Water Resources/DFM-Hydro-SMN","SACRAMENTO RIVER","2,4,14,16,45"
"OKG","OAK GROVE","2752","33.393","-116.795",,"4","5801","999","999","44","55","0","SAN DIEGO","SANTA MARGARITA R","US Forest Service","SOUTH COAST","2,4,9,10,11,12,13,14,30,31,32,45"
"OLS","KLAMATH RIVER AT ORLEANS","430","41.3034591674805","-123.53450012207","ORLEANS","1","201","409","702","409","2","0","HUMBOLDT","KLAMATH R","USGS/DWR-DFM-Hydro-SMN","NORTH COAST","1,2,14,16,20,41,45,169"
"OPS","OPENSHAW","268","39.589833","-121.635161","OROVILLE","5","6901","999","999","3","12","2","BUTTE","COTTONWOOD CR","CA Dept of Forestry and Fire Protection","SACRAMENTO RIVER","2,4,9,10,11,12,13,14,26,30,31,32,45,77,78"
"ORK","REDWOOD CREEK AT ORICK","36","41.2992897033691","-124.05118560791","ORICK","1","1001","409","702","409","1","0","HUMBOLDT","REDWOOD CR","USGS/DWR-DFM-Hydro-SMN","NORTH COAST","1,2,4,14,16,20,30,31,32,45,169"
"ORO","OROVILLE DAM","900","39.54","-121.493","OROVILLE","5","7301","701","999","709","13","50","BUTTE","FEATHER R","CA Dept of Water Resources/O&M Oroville Field Division","SACRAMENTO RIVER","2,6,7,8,14,15,22,23,45,74,76,85,94,200,203"
"OSO","OAKLAND SOUTH","1000","37.7881","-122.1436","OAKLAND","2","2001","999","999","302","22","0","ALAMEDA","EAST BAY","Oakland Fire Services Agency","SAN FRANCISCO BAY","2,4,9,10,11,12,13,14,30,31,32,45,77,78"
"PAS","SALINAS RIVER AT PASO ROBLES","700","35.6285820007324","-120.68433380127","PASO ROBLES","3","3301","700","999","5","37","0","SAN LUIS OBISPO","SALINAS R","USGS/DWR","CENTRAL COAST","1,2,14,16,20,45,169"
"PCK","PECKINPAH","5150","37.2467918395996","-119.461196899414","SOUTH FORK","6","9001","50","702","50","999","0","MADERA","SAN JOAQUIN R","US Bureau of Reclamation","SAN JOAQUIN RIVER","2,4,14,16,30,31,32,45"
"PCQ","PIRU CANYON NEAR LAKE PIRU","100","34.513332","-118.7567","GORMAN","4","4701","999","226","226","0","2","LOS ANGELES","PIRU CR","Ventura County Watershed Protection District","SOUTH COAST","2,45"
"PCR","PINECREST (PG&E)","5600","38.2","-119.983","SONORA","6","8501","999","999","60","19","0","TUOLUMNE","STANISLAUS R","Pacific Gas & Electric","SAN JOAQUIN RIVER","2,12,14,30,31,32,45"
"PDD","WALNUT CREEK AT PUDDINGSTONE DAM","1030","34.092","-117.807","POMONA","4","4901","170","170","170","47","0","LOS ANGELES","SAN GABRIEL R","Los Angeles County","SOUTH COAST","2,16,45"
"PDE","PARADISE","1750","39.7536","-121.6247","PARADISE","5","7301","1","1","709","13","0","BUTTE","FEATHER R","CA Dept of Water Resources/O&M Oroville Field Division","SACRAMENTO RIVER","2,4,9,10,12,14,16,45,77,78"
"PET","PETERSON FLAT","7150","41.3022193908691","-122.527778625488","TRINITY CENTER","1","901","50","702","50","999","0","TRINITY","TRINITY R","US Bureau of Reclamation","NORTH COAST","2,3,4,14,18,30,31,32,45,82"
"PFH","PACIFIC HOUSE","3440","38.7593688964844","-120.507690429687","PACIFIC HOUSE","5","7701","50","702","50","999","0","EL DORADO","AMERICAN R","US Bureau of Reclamation","SACRAMENTO RIVER","2,4,14,16,30,31,32,45,203"
"PFW","PINE FLAT WEATHER","610","36.8236","-119.3369","SANGER","6","9401","999","999","56","31","0","FRESNO","KINGS R","US Army Corps of Engineers","SAN JOAQUIN RIVER","2,4,9,10,12,14,17,26,29,30,31,32,45,47,175"
"PIU","PIRU","624","34.404","-118.81","PIRU","3","4601","999","999","156","46","0","VENTURA","SANTA CLARA R","Ventura County","CENTRAL COAST","2,4,7,9,10,11,12,13,14,26,30,31,32,45,77,78"
"PKC","PIKE COUNTY","3714","39.475","-121.202","YUBA CITY","5","7401","999","999","44","13","0","YUBA","YUBA R","US Forest Service","SACRAMENTO RIVER","2,4,9,10,11,12,13,14,30,31,32,45,77,78"
"PKF","PARKFIELD","1535","35.899","-120.432","PARKFIELD","3","3301","999","999","3","37","0","MONTEREY","SALINAS R","CA Dept of Forestry and Fire Protection","CENTRAL COAST","2,4,9,10,11,12,13,14,26,30,31,32,45,77,78"
"PLM","PALM SPRINGS AIRPORT","474","33.822224","-116.503609","PALM SPRINGS","9","12001","999","999","40","55","13","RIVERSIDE","WHITEWATER R","National Weather Service","SOUTH LAHONTAN","2,45"
"PLP","PILOT PEAK (DWR)","6800","39.7858924865723","-120.877777099609","QUINCY","5","7301","701","701","703","999","0","PLUMAS","FEATHER R","CA Dept of Water Resources/Operations and Maintenance","SACRAMENTO RIVER","2,3,4,14,18,45,82,237,238"
"PR1","PIT #1 PH (PG&E)","2880","41.0","-121.498","BURNEY","5","6701","999","999","60","4","0","SHASTA","PIT R","Pacific Gas & Electric","SACRAMENTO RIVER","2,12,14,16,30,45"
"PR3","PIT #3 PH (PG&E)","2100","40.998","-121.747","BURNEY","5","6701","999","999","60","9","0","SHASTA","PIT R","Pacific Gas & Electric","SACRAMENTO RIVER","2,12,14,16,30,45"
"PR5","PIT #5 PH (PG&E)","1458","40.987","-121.978","BURNEY","5","6701","999","999","60","9","0","LASSEN","PIT R","Pacific Gas & Electric","SACRAMENTO RIVER","2,12,14,16,30,45"
"PRY","PERRY RANCH","315","38.149","-120.922","BURSON","6","8401","999","999","56","18","0","CALAVERAS","CALAVERAS R","US Army Corps of Engineers","SAN JOAQUIN RIVER","2,45"
"PSB","PASO ROBLES AIRPORT","836","35.673054","-120.626114","PASO ROBLES","3","3301","999","999","40","37","13","SAN LUIS OBISPO","SALINAS R","National Weather Service","CENTRAL COAST","2,45"
"PSC","PASCOES","9150","35.967","-118.35","PASCOES","7","9701","999","999","56","39","0","TULARE","KERN R","US Army Corps of Engineers","TULARE LAKE","2,3,4,14,18,25,30,31,32,45,82,96,97,98,99,203"
"PSN","POISON FLAT","7900","38.501","-119.631","BRIDGEPORT","8","10701","999","999","54","19","0","ALPINE","CARSON R","Natural Resources Conservation Service","NORTH LAHONTAN","2,3,4,18,30,31,32,82"
"PSR","POISON RIDGE","6900","37.4028205871582","-119.520812988281","BASS LAKE","6","9001","50","702","50","999","0","MADERA","SAN JOAQUIN R","US Bureau of Reclamation","SAN JOAQUIN RIVER","2,3,4,14,16,18,45,82"
"PUD","SAN DIMAS CK AT PUDDINGSTON DIVERSN","1130","34.121","-117.782","SAN DIMAS","4","4901","170","170","170","47","0","LOS ANGELES","SAN GABRIEL R","Los Angeles County","SOUTH COAST","2,16,45"
"PVL","PRATTVILLE (PG&E)","4520","40.209","-121.157","CHESTER","5","7301","999","999","60","9","0","PLUMAS","FEATHER R","Pacific Gas & Electric","SACRAMENTO RIVER","2,12,14,16,30,45,64"
"PYL","PYRAMID LAKE VISITORS CENTER","100","34.66","-118.7642","GORMAN","4","4701","999","226","226","0","2","LOS ANGELES","PIRU CR","Ventura County Watershed Protection District","SOUTH COAST","2,45"
"QCY","QUINCY (DWR)","3408","39.935","-120.95","QUINCY","5","7301","701","999","703","14","0","PLUMAS","FEATHER R","CA Dept of Water Resources/Operations and Maintenance","SACRAMENTO RIVER","2,4,14,30,31,32,45,203"
"QUA","QUAKING ASPEN","7200","36.1175079345703","-118.539993286133","CAMP NELSON","7","9601","702","702","702","999","0","TULARE","TULE R","CA Dept of Water Resources/DFM-Hydro-SMN","TULARE LAKE","2,3,4,14,18,30,31,32,45,82,103,104,105"
"QYR","QUINCY RANGER DISTRICT","3500","39.975","-120.941","QUINCY","5","7301","999","999","44","14","0","PLUMAS","FEATHER R","US Forest Service","SACRAMENTO RIVER","2,4,9,10,11,12,13,14,26,30,31,32,45,77,78"
"RBR","ROBIDART RANCH","315","38.137","-121.031","LODI","6","8401","999","999","139","17","0","SAN JOAQUIN","CALAVERAS R","San Joaquin County","SAN JOAQUIN RIVER","2,16,45"
"RDD","REDDING AIRPORT","502","40.5","-122.3","REDDING","5","7001","40","40","40","8","0","SHASTA","SACTO VLY NE","National Weather Service","SACRAMENTO RIVER","2,45"
"RDH","READER RANCH","2025","39.304","-121.117","NEVADA CITY","5","7401","999","999","3","13","0","NEVADA","YUBA R","CA Dept of Forestry and Fire Protection","SACRAMENTO RIVER","2,4,9,10,11,12,13,14,26,30,31,32,45,77,78"
"RFS","REDDING FIRE STATION","740","40.5736","-122.4193","REDDING","5","7001","999","999","50","8","0","SHASTA","SACTO VLY NE","US Bureau of Reclamation","SACRAMENTO RIVER","2,4,14,16,30,31,32,45"
"RGC","ROGERS CAMP","6200","36.108","-118.637","CAMP NELSON","7","9601","999","999","56","32","0","TULARE","TULE R","US Army Corps of Engineers","TULARE LAKE","2,4,45,203"
"RHL","RICHMOND CITY HALL","55","37.9369","-122.3427","RICHMOND","2","2801","999","999","107","22","0","CONTRA COSTA","SF BAY","Contra Costa County","SAN FRANCISCO BAY","2,16,45"
"RNC","RANCHO CORDOVA","72","38.6025556","-121.3124444","RANCHO CORDOVA","5","7701","999","999","134","16","13","SACRAMENTO","AMERICAN R","Sacramento County","SACRAMENTO RIVER","2,16,45"
"ROV","ROSE VALLEY","3331","34.536","-119.184","WHEELER SPRINGS","4","4501","999","999","3","45","0","VENTURA","U SANTA CLARA R","CA Dept of Forestry and Fire Protection","SOUTH COAST","2,4,9,10,11,12,13,14,30,31,32,45,77,78"
"RP2","RUBICON PEAK 2","7500","39.001","-120.14","SOUTH LAKE TAHOE","8","10601","999","999","54","14","0","EL DORADO","LAKE TAHOE","Natural Resources Conservation Service","NORTH LAHONTAN","2,3,4,18,30,31,32,82"
"RRG","RODDY RANCH GOLF CLUB","403","37.9236","-121.7858","ANTIOCH","2","2001","999","999","107","22","0","CONTRA COSTA","EAST BAY","Contra Costa County","SAN FRANCISCO BAY","2,16,45"
"RTH","RUTH LAKE","2700","40.3185386657715","-123.374000549316","ARCATA","1","1101","409","702","409","999","0","HUMBOLDT","MAD R","USGS/DWR-DFM-Hydro-SMN","NORTH COAST","2,4,14,16,45"
"RTL","RATTLESNAKE","6210","40.12791","-121.04397","GREENVILLE","5","7301","999","999","703","0","0","PLUMAS","FEATHER R","CA Dept of Water Resources/Operations and Maintenance","SACRAMENTO RIVER","2,3,4,14,30,31,32,45,82"
"RVE","RIVERSIDE AIRPORT","827","33.951946","-117.444168","RIVERSIDE","9","5701","999","999","40","54","13","RIVERSIDE","SANTA ANA R","National Weather Service","SOUTH LAHONTAN","2,45"
"SAD","SADDLE CAMP","3850","40.1652793884277","-122.801109313965","RED BLUFF","5","6901","702","702","702","999","0","TEHAMA","COTTONWOOD CR","CA Dept of Water Resources/DFM-Hydro-SMN","SACRAMENTO RIVER","2,4,14,16,30,31,32,45"
"SAE","SACRAMENTO EXECUTIVE AIRPORT","21","38.506943","-121.495003","SACRAMENTO","5","6501","999","999","40","17","13","SACRAMENTO","SACRAMENTO R","National Weather Service","SACRAMENTO RIVER","2,45"
"SAF","SANTA FE","500","34.1261","-117.9464","POMONA","4","4901","999","999","172","47","0","LOS ANGELES","SAN GABRIEL R","Los Angeles County Fire Dept","SOUTH COAST","2,4,9,10,11,12,13,14,17,26,30,31,32,45,77,78"
"SBY","STRAWBERRY VALLEY","3810","39.564","-121.106","STRAWBERRY VALLEY","5","7301","701","703","703","13","0","YUBA","FEATHER R","CA Dept of Water Resources/Operations and Maintenance","SACRAMENTO RIVER","2,14,45"
"SCH","SCHULTIES RD","1400","37.133","-121.969","LOS GATOS","3","2901","999","999","144","22","0","SANTA CRUZ","SAN LORENZO R","Santa Cruz County","CENTRAL COAST","2,16,45"
"SCT","SCOTT MOUNTAIN","5900","41.2722015380859","-122.719482421875","CALLAHAN","1","601","50","702","50","999","0","SISKIYOU","SCOTT R","US Bureau of Reclamation","NORTH COAST","2,3,4,14,18,30,31,32,45,82"
"SCY","SAN BERNARDINO COUNTY YARD","1042","34.104","-117.268","SAN BERNARDINO","4","5701","136","136","136","47","0","SAN BERNARDINO","SANTA ANA R","San Bernardino County","SOUTH COAST","2,16,45"
"SDF","SAND FLAT","6750","41.3502388000488","-122.246528625488","MOUNT SHASTA CITY","5","6501","50","702","50","999","0","SISKIYOU","SACRAMENTO R","US Bureau of Reclamation","SACRAMENTO RIVER","2,3,4,14,16,18,30,31,32,45,82"
"SDG","SAN DIEGO NWS-LINDBERGH FIELD","13","32.733","-117.167","SAN DIEGO","4","6101","999","999","40","59","0","SAN DIEGO","SAN DIEGO R","National Weather Service","SOUTH COAST","2,45"
"SFB","SPRING GAP FOREBAY (PG&E)","5100","38.172","-120.103","PINECREST","6","8501","999","999","60","18","0","CALAVERAS","STANISLAUS R","Pacific Gas & Electric","SAN JOAQUIN RIVER","2,12,14,16,30,31,32,45"
"SFN","SAN FRANCISCO","150","37.770557","-122.426941","SAN FRANCISCO","2","2801","999","999","40","22","13","SAN FRANCISCO","SF BAY","National Weather Service","SAN FRANCISCO BAY","2,45"
"SFS","STOCKTON FIRE STATION","14","37.999","-121.319","STOCKTON","6","9001","999","999","1","23","0","SAN JOAQUIN","SAN JOAQUIN R","CA Dept of Water Resources","SAN JOAQUIN RIVER","2,14,16,45"
"SGL","SUGARLOAF","8120","36.726667","-118.675","GIANT FOREST","7","9401","999","999","55","31","6","TULARE","KINGS R","National Park Service","TULARE LAKE","2,4,9,10,11,12,13,14,26,30,31,32,45,77,78"
"SGP","SUGAR PINE","3843","39.1239738464355","-120.761199951172","MICHIGAN BLUFF","5","7701","50","702","50","999","0","PLACER","AMERICAN R","US Bureau of Reclamation","SACRAMENTO RIVER","2,4,14,16,30,31,32,45"
"SGV","SPRINGVILLE TULE POWERPLANT","4070","36.1631","-118.7072","PORTERVILLE","7","9601","999","999","60","32","0","TULARE","TULE R","Pacific Gas & Electric","TULARE LAKE","2,14,16,30,45,203"
"SH4","ST. HELENA 4WSW","1729","38.4930610656738","-122.53971862793","ST HELENA","2","1901","702","702","702","999","2","NAPA","NAPA R","CA Dept of Water Resources/DFM-Hydro-SMN","SAN FRANCISCO BAY","2,4,14,16,45"
"SHA","SHASTA DAM  (USBR)","1067","40.718","-122.42","REDDING","5","6501","999","999","50","8","0","SHASTA","SACRAMENTO R","US Bureau of Reclamation","SACRAMENTO RIVER","2,6,8,15,22,23,45,48,68,71,74,76,85,94,200"
"SHI","SHINGLETOWN","3630","40.497501373291","-121.851936340332","SHINGLETOWN","5","7001","702","702","702","999","0","SHASTA","SACTO VLY NE","CA Dept of Water Resources/DFM-Hydro-SMN","SACRAMENTO RIVER","2,4,14,16,30,31,32,45"
"SHR","SHEEP RANCH","2370","38.21","-120.462","SHEEP RANCH","6","8401","999","999","56","18","0","CALAVERAS","CALAVERAS R","US Army Corps of Engineers","SAN JOAQUIN RIVER","2,45"
"SHS","SHASTA DAM (USBR)","1100","40.717","-122.417","REDDING","5","6501","999","999","50","8","0","SHASTA","SACRAMENTO R","US Bureau of Reclamation","SACRAMENTO RIVER","2,4,14,16,30,31,32,45,203"
"SIL","SILVER LAKE","7100","38.6796035766602","-120.118194580078","KIT CARSON","5","7701","50","702","50","999","0","EL DORADO","AMERICAN R","US Bureau of Reclamation","SACRAMENTO RIVER","2,3,4,12,14,18,30,31,32,45,82"
"SJE","SAN JOSE (ALERT)","58","37.362","-121.927","SAN JOSE","2","2301","999","999","143","23","0","SANTA CLARA","LOS GATOS CR (NEAR SAN JOSE)","Santa Clara County","SAN FRANCISCO BAY","2,16,45"
"SLH","SOUTH LAKE TAHOE AIRPORT","6314","38.898335","-119.99472","SOUTH LAKE TAHOE","8","10501","999","999","40","19","13","EL DORADO","TRUCKEE R","National Weather Service","NORTH LAHONTAN","2,45"
"SLM","STANISLAUS MEADOW","7750","38.5055","-119.9373","BEAR VALLEY","6","8501","50","702","50","19","0","ALPINE","STANISLAUS R","US Bureau of Reclamation","SAN JOAQUIN RIVER","2,3,4,12,14,16,18,30,31,32,45,82,194,195,196,197,198,199"
"SLP","SLY PARK","3530","38.7173118591309","-120.563056945801","POLLOCK PINES","6","8201","50","702","50","999","0","EL DORADO","COSUMNES R","US Bureau of Reclamation","SAN JOAQUIN RIVER","2,4,14,16,30,31,32,45"
"SLT","SLATE CREEK","5700","41.0439796447754","-122.480102539062","CASTELLA","5","6501","50","702","50","999","0","SHASTA","SACRAMENTO R","US Bureau of Reclamation","SACRAMENTO RIVER","2,3,4,14,16,18,30,31,32,45,82"
"SMB","SANTA MARGARITA BOOSTER","1100","35.3738899230957","-120.637496948242","SANTA MARGARITA","3","3301","702","702","702","0","0","SAN LUIS OBISPO","SALINAS R","CA Dept of Water Resources/DFM-Hydro-SMN","CENTRAL COAST","2,4,14,16,45"
"SMF","SACRAMENTO INTERNATIONAL AIRPORT","17","38.686","-121.587","SACRAMENTO","5","7101","999","999","134","17","0","SACRAMENTO","SACTO VLY WEST","Sacramento County","SACRAMENTO RIVER","2,12,16,45"
"SMI","SMITH MOUNTAIN","3920","36.083","-120.608","SAN ARDO","3","3301","701","999","703","30","0","MONTEREY","SALINAS R","CA Dept of Water Resources/Operations and Maintenance","CENTRAL COAST","2,14,45"
"SMV","SIMI VALLEY","914","34.2912","-118.7976","SIMI VALLEY","3","4601","999","999","156","46","0","VENTURA","SANTA CLARA R","Ventura County","CENTRAL COAST","2,4,9,10,11,12,13,14,17,26,30,31,32,45,77,78"
"SND","SAN DIMAS DAM","1350","34.153","-117.771","SAN DIMAS","4","4901","170","170","170","47","0","LOS ANGELES","SAN GABRIEL R","Los Angeles County","SOUTH COAST","2,16,45"
"SNM","SNOW MOUNTAIN","5950","40.77880859375","-121.782676696777","BURNEY","5","6701","50","702","50","999","0","SHASTA","PIT R","US Bureau of Reclamation","SACRAMENTO RIVER","2,3,4,14,16,18,30,31,32,45,82"
"SNO","SONOMA COUNTY AIRPORT (SANTA ROSA)","114","38.503887","-122.81028","SANTA ROSA","1","1601","999","999","40","16","13","SONOMA","RUSSIAN R","National Weather Service","NORTH COAST","2,45"
"SNR","SANGUINETTI RANCH","238","37.993","-120.981","LINDEN","6","9001","999","999","139","24","0","SAN JOAQUIN","SAN JOAQUIN R","San Joaquin County","SAN JOAQUIN RIVER","2,16,45"
"SOC","STOCKTON AIRPORT","27","37.889999","-121.226387","STOCKTON","6","8451","999","999","40","23","13","SAN JOAQUIN","LITTLEJOHN CR","National Weather Service","SAN JOAQUIN RIVER","2,45"
"SPA","SPANISH LAKE","4840","36.262","-120.526","COALINGA","7","9950","701","999","703","30","0","FRESNO","LOS GATOS CR (NEAR COALINGA)","CA Dept of Water Resources/Operations and Maintenance","TULARE LAKE","2,14,45"
"SPS","SONORA PASS BRIDGE","8750","38.318","-119.601","BRIDGEPORT","8","10801","999","999","54","19","0","MONO","WALKER R","Natural Resources Conservation Service","NORTH LAHONTAN","2,3,4,18,30,31,32,45,82"
"SPT","SPRATT CREEK","6150","38.66627","-119.81742","MARKLEEVILLE","8","10701","999","999","54","18","0","ALPINE","CARSON R","Natural Resources Conservation Service","NORTH LAHONTAN","2,3,4,18,30,31,32,82"
"SPW","STANISLAUS POWERHOUSE","1060","38.133","-120.367","JACKSON","6","8501","999","999","60","18","0","CALAVERAS","STANISLAUS R","Pacific Gas & Electric","SAN JOAQUIN RIVER","2,4,12,14,16,30,31,32,45"
"SQV","PALISADES TAHOE SNOTEL","8200","39.194","-120.276","TAHOE CITY","8","10501","999","999","54","14","0","PLACER","TRUCKEE R","Natural Resources Conservation Service","NORTH LAHONTAN","2,3,4,18,30,31,32,82"
"SRC","SIERRA CITY","4700","39.567684173584","-120.653396606445","SIERRA CITY","5","7401","702","702","702","999","0","SIERRA","YUBA R","CA Dept of Water Resources/DFM-Hydro-SMN","SACRAMENTO RIVER","2,4,14,16,30,31,32,45"
"SRI","SANTA RITA","5000","36.348","-120.598","COALINGA","3","3101","999","999","3","30","0","SAN BENITO","SAN BENITO R","CA Dept of Forestry and Fire Protection","CENTRAL COAST","2,4,9,10,12,13,14,26,30,31,32,45,77,78"
"SSR","SALT SPRINGS PH (PG&E)","3700","38.498","-120.219","BEAR VALLEY","6","8301","999","999","60","18","0","CALAVERAS","MOKELUMNE R","Pacific Gas & Electric","SAN JOAQUIN RIVER","2,12,14,16,30,45"
"STA","SANTA ROSA (CDF)","560","38.479","-122.712","SANTA ROSA","1","1601","999","999","3","16","0","SONOMA","RUSSIAN R","CA Dept of Forestry and Fire Protection","NORTH COAST","2,4,9,10,11,12,13,14,26,30,31,32,45,77,78"
"STG","STONY GORGE RESERVOIR","800","39.583","-122.533","ELK CREEK","5","7251","999","999","50","12","0","GLENN","STONY CR","US Bureau of Reclamation","SACRAMENTO RIVER","2,4,6,14,15,16,25,30,31,32,45"
"STM","STOUTS MEADOW","5400","41.1691398620605","-121.939826965332","MCCLOUD","5","6601","50","702","50","999","0","SHASTA","MC CLOUD R","US Bureau of Reclamation","SACRAMENTO RIVER","2,3,4,14,18,30,31,32,45,82"
"STR","OSTRANDER LAKE","8200","37.637","-119.55","WAWONA","6","8701","702","702","702","25","0","MARIPOSA","MERCED R","CA Dept of Water Resources/DFM-Hydro-SMN","SAN JOAQUIN RIVER","2,3,4,9,10,12,14,16,18,26,31,32,45,77,78,82,103,104,105,106,107,108,115,197,198"
"SVL","SIERRAVILLE (DWR)","4975","39.58495","-120.36965","SIERRAVILLE","5","7301","701","999","709","0","0","SIERRA","FEATHER R","CA Dept of Water Resources/O&M Oroville Field Division","SACRAMENTO RIVER","2,14,45,203"
"SWX","SONORA WEATHER STATION","2221","37.961455","-120.324102","SONORA","6","8601","999","999","180","23","2","TUOLUMNE","TUOLUMNE R","San Francisco County","SAN JOAQUIN RIVER","2,4,10,12,14,17,26,45,77,122,134"
"TAL","TALEGA","1203","33.475","-117.487","SAN CLEMENTE","4","5801","999","999","304","54","0","SAN DIEGO","SANTA MARGARITA R","Camp Pendleton Fire Dept","SOUTH COAST","2,4,9,10,11,12,13,14,17,30,31,32,45,77,78"
"TAY","NELSON ST TAYLORSVILLE","3540","40.0793","-120.8357","TAYLORSVILLE","5","7301","707","707","707","10","0","PLUMAS","FEATHER R","CA Dept of Water Resources/North Region Office","SACRAMENTO RIVER","2,4,9,10,12,14,17,26,30,31,32,45,77,78,103,104,105,115,123,124,126,127,128,129,130,131,132,133,134"
"TCC","TAHOE CITY CROSS","6750","39.171439","-120.154658","TAHOE CITY","8","10601","999","999","54","13","0","PLACER","LAKE TAHOE","Natural Resources Conservation Service","NORTH LAHONTAN","2,3,4,18,30,31,32,82"
"TCP","TIGER CREEK POWERHOUSE","2360","38.45","-120.483","JACKSON","6","8301","999","999","60","18","0","CALAVERAS","MOKELUMNE R","Pacific Gas & Electric","SAN JOAQUIN RIVER","2,4,12,14,16,30,31,32,45"
"TGS","TRINITY GUARD STATION","4100","40.825","-122.66","LEWISTON","1","901","999","999","50","8","0","TRINITY","TRINITY R","US Bureau of Reclamation","NORTH COAST","2,4,14,16,45"
"THO","THOMES CREEK AT PASKENTA","720","39.8878402709961","-122.528564453125","PASKENTA","5","6501","700","707","707","12","0","TEHAMA","SACRAMENTO R","CA Dept of Water Resources/North Region Office","SACRAMENTO RIVER","1,2,14,16,20,45"
"THP","THOMPSON CREEK DAM","1600","34.139","-117.709","CLAREMONT","4","4801","170","170","170","47","0","LOS ANGELES","LOS ANGELES R","Los Angeles County","SOUTH COAST","2,16,45"
"TK2","TRUCKEE 2","6400","39.3","-120.194","TRUCKEE","8","10501","999","999","54","14","0","PLACER","TRUCKEE R","Natural Resources Conservation Service","NORTH LAHONTAN","2,3,4,18,30,31,32,82"
"TLH","TELEGRAPH HILL","3730","38.0311012268066","-120.351936340332","COLUMBIA","6","8501","50","702","50","999","0","TUOLUMNE","STANISLAUS R","US Bureau of Reclamation","SAN JOAQUIN RIVER","2,4,14,16,30,31,32,45"
"TMR","TAMARACK SUMMIT","7550","37.1637496948242","-119.200531005859","SHAVER LAKE","6","9001","50","702","50","999","0","FRESNO","SAN JOAQUIN R","US Bureau of Reclamation","SAN JOAQUIN RIVER","2,3,4,14,16,18,30,31,32,45,82"
"TOK","THOUSAND OAKS RAWS","795","34.21","-118.87","THOUSAND OAKS","4","4601","999","999","218","46","0","VENTURA","SANTA CLARA R","Ventura County Fire","SOUTH COAST","2,4,9,10,11,12,13,14,26,30,31,32,45,77,78"
"TPG","TOPANGA RAWS","1600","34.1364","-118.605","CALABASAS","4","4301","999","999","172","46","0","LOS ANGELES","VENTURA LA COASTAL","Los Angeles County Fire Dept","SOUTH COAST","2,4,9,10,11,12,13,14,17,26,30,31,32,45,77,78"
"TRI","TRIMMER","1540","36.9","-119.2","SANGER","6","9401","999","999","44","31","0","FRESNO","KINGS R","US Forest Service","SAN JOAQUIN RIVER","2,4,9,10,11,12,13,14,26,30,31,32,45,77,78"
"TUM","TUOLUMNE MEADOWS","8600","37.873","-119.35","TUOLUMNE MEADOWS","6","8601","702","702","702","25","0","TUOLUMNE","TUOLUMNE R","CA Dept of Water Resources/DFM-Hydro-SMN","SAN JOAQUIN RIVER","1,2,3,4,5,9,10,12,14,16,18,20,25,26,27,30,31,32,45,52,82,103,104,105,106,115,146,194,195,196,197,198,199,208"
"TVL","THOMPSON VALLEY","5404","39.979","-120.4789","PORTOLA","5","7301","999","999","709","14","0","PLUMAS","FEATHER R","CA Dept of Water Resources/O&M Oroville Field Division","SACRAMENTO RIVER","2,4,9,10,12,14,17,26,30,31,32,45,77,78,103,104,105,115,123,124,126,127,128,129,130,131,132,133,134"
"TYR","TAYLOR RIDGE","4000","40.917","-122.817","WEAVERVILLE","1","901","999","999","50","8","0","TRINITY","TRINITY R","US Bureau of Reclamation","NORTH COAST","2,4,14,16,45"
"USC","LOS ANGELES / USC","185","34.021667","-118.291389","LOS ANGELES","4","4801","999","999","40","46","13","LOS ANGELES","LOS ANGELES R","National Weather Service","SOUTH COAST","2,45"
"VEN","VENADO","1260","38.608699798584","-123.018058776855","HEALDSBURG","1","1601","702","702","702","999","0","SONOMA","RUSSIAN R","CA Dept of Water Resources/DFM-Hydro-SMN","NORTH COAST","2,4,9,10,11,12,13,14,16,45"
"VRG","VIRGINIA LAKES RIDGE","9300","38.077","-119.234","BRIDGEPORT","8","10801","999","999","54","19","0","MONO","WALKER R","Natural Resources Conservation Service","NORTH LAHONTAN","2,3,4,18,30,31,32,45,82"
"WC3","WARD CREEK 3","6750","39.135574","-120.218678","TAHOE CITY","8","10601","999","999","54","13","0","PLACER","LAKE TAHOE","Natural Resources Conservation Service","NORTH LAHONTAN","2,3,4,18,30,31,32,82"
"WHI","WHISKEYTOWN DAM (USBR)","1210","40.598","-122.537","REDDING","5","6501","999","999","50","8","0","SHASTA","SACRAMENTO R","US Bureau of Reclamation","SACRAMENTO RIVER","2,6,7,8,15,22,23,45,48,71,74,76,85"
"WHW","WHITE WOLF","7900","37.8595","-119.6516","GROVELAND","6","8601","999","999","55","25","0","TUOLUMNE","TUOLUMNE R","National Park Service","SAN JOAQUIN RIVER","2,3,4,9,10,11,12,13,14,16,18,30,31,32,45,77,78,82,103"
"WIL","WILLITS HOWARD RS","1925","39.3506","-123.3217","WILLITS","1","1601","702","702","702","11","2","MENDOCINO","RUSSIAN R","CA Dept of Water Resources/DFM-Hydro-SMN","NORTH COAST","2,4,9,10,11,12,13,14,16,45"
"WLN","WALNUT CREEK SB","520","34.074","-117.874","WEST COVINA","4","4901","170","170","170","47","0","LOS ANGELES","SAN GABRIEL R","Los Angeles County","SOUTH COAST","2,16,45"
"WSD","WISHON DAM (PG&E)","6550","37.003","-118.986","GRANT GROVE","7","9401","999","999","60","26","0","FRESNO","KINGS R","Pacific Gas & Electric","TULARE LAKE","2,14,16,30,31,32,45"
"WSP","WHISPERING PINES","2700","38.8058280944824","-122.70832824707","MIDDLETOWN","1","8001","702","702","702","999","0","LAKE","PUTAH CR","CA Dept of Water Resources/DFM-Hydro-SMN","NORTH COAST","2,4,14,16,45"
"WST","WESTFALL","4880","37.4494","-119.6497","FISH CAMP","6","8901","999","999","56","25","0","MARIPOSA","FRESNO R","US Army Corps of Engineers","SAN JOAQUIN RIVER","2,4,45"
"WTR","WHISKEYTOWN RAWS HQ#2 NR WHISKEYTOWN 3SE","1360","40.610514","-122.527314","SHASTA","5","6501","999","999","40","7","2","SHASTA","SACRAMENTO R","National Weather Service","SACRAMENTO RIVER","2,4,9,10,11,12,13,14,26,45,77,78"
"WWD","WESTWOOD","5150","40.307","-120.9","WESTWOOD","5","7301","999","999","3","10","0","LASSEN","FEATHER R","CA Dept of Forestry and Fire Protection","SACRAMENTO RIVER","2,4,9,10,11,12,13,14,26,30,31,32,45,77,78"
"YGF","YGNACIO VALLEY FIRE","83","37.938","-122.028","CONCORD","2","2001","999","999","107","22","0","CONTRA COSTA","EAST BAY","Contra Costa County","SAN FRANCISCO BAY","2,16,45"
"YOR","YORKVILLE","1100","38.9049987792969","-123.231109619141","YORKVILLE","1","1601","702","702","702","999","2","MENDOCINO","RUSSIAN R","CA Dept of Water Resources/DFM-Hydro-SMN","NORTH COAST","2,4,14,16,45"
"YOW","YOSEMITE NEAR WAWONA","4957","37.508","-119.632","WAWONA","6","8701","999","999","204","25","0","MARIPOSA","MERCED R","Merced Irrigation District","SAN JOAQUIN RIVER","2,4,14,16,30,31,32,45"
"YSV","YOSEMITE HEADQUARTERS","3966","37.74","-119.583","YOSEMITE VILLAGE","6","8701","999","999","204","25","0","MARIPOSA","MERCED R","Merced Irrigation District","SAN JOAQUIN RIVER","2,45,203"
"YUC","YUCCA VALLEY","3100","34.123","-116.408","YUCCA VALLEY","10","12001","999","999","3","48","0","SAN BERNARDINO","WHITEWATER R","CA Dept of Forestry and Fire Protection","COLORADO RIVER","2,4,9,10,11,12,13,14,26,30,31,32,45,77,78"
"YYV","YOSEMITE AT YOSEMITE VALLEY","4200","37.74","-119.589","YOSEMITE VILLAGE","6","8701","999","999","204","25","0","MARIPOSA","MERCED R","Merced Irrigation District","SAN JOAQUIN RIVER","2,4,14,16,30,31,32,45"
"ZEN","ZENIA","4000","40.2084007263184","-123.45979309082","GARBERVILLE","1","1201","702","702","702","999","0","TRINITY","EEL R","CA Dept of Water Resources/DFM-Hydro-SMN","NORTH COAST","2,4,14,16,30,31,32,45"
"ZPC","ZAPATO CHINO","1150","36.016","-120.293","DOS PALOS","7","9950","999","999","1","30","0","FRESNO","LOS GATOS CR (NEAR COALINGA)","CA Dept of Water Resources","TULARE LAKE","2,14,45"
